Brand,Dealer Name Thai,Location,Dealer Name Eng,Location,Tel,Map,Latitude,Longitude
TOYOTA,บริษัท วรจักร์ยนต์ จำกัด สำนักงานใหญ่,548-566 วิสุทธิกษัตริย์ บ้านพานถม พระนคร กรุงเทพมหานคร 10200,"Vorachak Yont Co., Ltd. Head Office",548-566 Wisuthikasat Ban Phan Thom Phra Nakhon Bangkok 10200,(02) 629 4000,https://maps.app.goo.gl/4dvCmNpPa5amemjY9,13.76101095,100.5051905
TOYOTA,บริษัท วรจักร์ยนต์ จำกัด หลานหลวง,178-178/1 หลานหลวง คลองมหานาค ป้อมปราบศัตรูพ่าย กรุงเทพมหานคร 10100,"Vorachak Yont Co., Ltd. Larn Luang",178-178/1 Lan-Luang Khlong Mahanak Pom Prap Sattru Phai Bangkok 10100,(02) 629 4000,https://maps.app.goo.gl/qDgW58xSMy7TUjpH7,13.75629521,100.512092
TOYOTA,บริษัท วรจักร์ยนต์ จำกัด เพชรบุรีตัดใหม่,2388 เพชรบุรีตัดใหม่ บางกะปิ ห้วยขวาง กรุงเทพมหานคร 10310,"Vorachak Yont Co., Ltd. New Petchburi",2388 New Phetchaburi Bang Kapi Huai Khwang Bangkok 10310,(02) 629 4000,https://maps.app.goo.gl/En5UfR7vywHed2dY8,13.74512713,100.5837066
TOYOTA,บริษัท วรจักร์ยนต์ จำกัด พหลโยธิน,362 พหลโยธิน สามเสนใน พญาไท กรุงเทพมหานคร 10400,"Vorachak Yont Co., Ltd. Phaholyothin",362 Phahol Yothin Sam Sen Nai Phaya Thai Bangkok 10400,(02) 629 4000,https://maps.app.goo.gl/b984bvM2UyP85j7H9,13.78061427,100.5454107
TOYOTA,บริษัท วรจักร์ยนต์ จำกัด สมุทรปราการ,1/1 สุขุมวิท ปากน้ำ เมืองสมุทรปราการ สมุทรปราการ 10270,"Vorachak Yont Co., Ltd. Samutprakarn",1/1 Sukhumvit Pak Nam Mueang Samut Prakan Samut Prakan 10270,(02) 629 4000,https://maps.app.goo.gl/BmSuSVgFTP9Y2fSf6,13.62799679,100.5888254
TOYOTA,บริษัท วรจักร์ยนต์ จำกัด สี่แยกบ้านแขก,524 ประชาธิปก หิรัญรูจี ธนบุรี กรุงเทพมหานคร 10600,"Vorachak Yont Co., Ltd. Siyaekbankhaek ",524 Phachatipok Hiranruchi Thon Buri Bangkok 10600,(02) 629 4000,https://maps.app.goo.gl/umGwtnniXdBpnwed8,13.72985227,100.493776
TOYOTA,บริษัท วรจักร์ยนต์ จำกัด พระราม 2,319 พระรามที่ 2 แสมดำ บางขุนเทียน กรุงเทพมหานคร 10150,"Vorachak Yont Co., Ltd. Rama 2 ",319 Rama 2 Samae Dam Bang Khun Thian Bangkok 10150,(02) 629 4000,https://maps.app.goo.gl/nxwHeWaHewgfec7M6,13.65211915,100.4234905
TOYOTA,บริษัท วรจักร์ยนต์ จำกัด ศรีนครินทร์,545/36 ศรีนครินทร์ ปากน้ำ เมืองสมุทรปราการ สมุทรปราการ 10270,"Vorachak Yont Co., Ltd. Srinakarin ",545/36 Srinakarin Pak Nam Mueang Samut Prakan Samut Prakan 10270,(02) 629 4000,https://maps.app.goo.gl/T4PMNuUFgLhXgf3PA,13.59665694,100.6093272
TOYOTA,บริษัท เอส.พี.อินเตอร์แนชั่นแนล จำกัด สำนักงานใหญ่,69 รามคำแหง หัวหมาก บางกะปิ กรุงเทพมหานคร 10240,"S.P. International Co., Ltd. Head Office",69 Ramkhamheang Hua Mak Bang Kapi Bangkok 10240,(02) 310 7777,https://maps.app.goo.gl/4vmydNmh4E1gAeKfA,13.75282937,100.6106082
TOYOTA,บริษัท เอส.พี.อินเตอร์แนชั่นแนล จำกัด สุขาภิบาล 2,220 เสรีไทย (สุขาภิบาล 2) คันนายาว คันนายาว กรุงเทพมหานคร 10230,"S.P. International Co., Ltd. Sukhaphiban 2",220 Sereethai (Sukhapibal2) Khan Na Yao Khan Na Yao Bangkok 10230,(02) 310 7777,https://maps.app.goo.gl/6FALSRqyMJK8HtpZ9,13.79405875,100.6895933
TOYOTA,บริษัท เอส.พี.อินเตอร์แนชั่นแนล จำกัด เทพารักษ์,1255 หมู่ที่ 7 เทพารักษ์ เทพารักษ์ เมืองสมุทรปราการ สมุทรปราการ 10270,"S.P. International Co., Ltd. Thepharak",1255 Moo 7 Thepharak Thepharak Mueang Samut Prakan Samut Prakan 10270,(02) 310 7777,https://maps.app.goo.gl/RGPCo9VU6cQcqTcR8,13.62438727,100.6337713
TOYOTA,บริษัท เอส.พี.อินเตอร์แนชั่นแนล จำกัด ราชพฤกษ์,73 ราชพฤกษ์ บางแวก ภาษีเจริญ กรุงเทพมหานคร 10160,"S.P. International Co., Ltd. Ratchapruek",73 Ratcha Phruk Bang Waek Phasi Charoen Bangkok 10160,(02) 310 7777,https://maps.app.goo.gl/x6ab7wxa67MMBa2A6,13.73332902,100.448849
TOYOTA,บริษัท เจริญไทยมอเตอร์ เซลส์ จำกัด พหลโยธิน,1071 พหลโยธิน สามเสนใน พญาไท กรุงเทพมหานคร 10400,"Charoen Thai Motor Sales Co., Ltd. Phaholyothin",1071 Phahon Yothin Sam Sen Nai Phaya Thai Bangkok 10400,(02) 743 3555,https://maps.app.goo.gl/zoS8u7pwHfZstV5Z8,13.77576401,100.5428552
TOYOTA,"บริษัท เจริญไทยมอเตอร์ เซลส์ จำกัด
สุขุมวิท 71",227/5 สุขุมวิท 71 พระโขนงเหนือ วัฒนา กรุงเทพมหานคร 10110,"Charoen Thai Motor Sales Co., Ltd. Sukhumvit 71",227/5 Sukhumvit 71 Phra Khanong Nuea Vadhana Bangkok 10110,(02) 743 3555,https://maps.app.goo.gl/m4bMRcQjEnyum1pCA,13.71907231,100.5956122
TOYOTA,บริษัท เจริญไทยมอเตอร์ เซลส์ จำกัด พัฒนาการ,1944 พัฒนาการ สวนหลวง สวนหลวง กรุงเทพมหานคร 10250,"Charoen Thai Motor Sales Co., Ltd. Pattanakan ",1944 Phatthanakarn Suan Luang Suan Luang Bangkok 10250,(02) 743 3555,https://maps.app.goo.gl/sa4m7jCniHjb7Lwv8,13.73602291,100.6355471
TOYOTA,บริษัท เจริญไทยมอเตอร์ เซลส์ จำกัด เพชรเกษม,88/126-127 เพชรเกษม หนองค้างพลู หนองแขม กรุงเทพมหานคร 10160,"Charoen Thai Motor Sales Co., Ltd. Petchkasem",88/126-127 Phetkasem Nong Khang Phlu Nong Khaem Bangkok 10160,(02) 743 3555,https://maps.app.goo.gl/3QSJJBGFpTEWHXhZA,13.70525412,100.3362338
TOYOTA,บริษัท เจริญไทยมอเตอร์ เซลส์ จำกัด นวมินทร์,15/9 นวมินทร์ นวมินทร์ บึงกุ่ม กรุงเทพมหานคร 10230,"Charoen Thai Motor Sales Co., Ltd. Nawamin",15/9 Nawamin Nawamin Bueng Kum Bangkok 10230,(02) 743 3555,https://maps.app.goo.gl/g4EJNVfLBknaP91N9,13.80821341,100.6490781
TOYOTA,บริษัท เจริญไทยมอเตอร์ เซลส์ จำกัด สำนักงานใหญ่,69/63 หมู่ที่ 2 ศรีนครินทร์ หนองบอน ประเวศ กรุงเทพมหานคร 10250,"Charoen Thai Motor Sales Co., Ltd. Head Office",69/63 Moo 2 Srinakarin Nong Bon Prawet Bangkok 10250,(02) 743 3555,https://maps.app.goo.gl/X9dHwUzxfGGCGfKx7,13.67921533,100.6455857
TOYOTA,บริษัท เจริญไทยมอเตอร์ เซลส์ จำกัด วิภาวดี - ดินแดง,22/2 วิภาวดี-รังสิต ดินแดง ดินแดง กรุงเทพมหานคร 10400,"Charoen Thai Motor Sales Co., Ltd. Vibhavadi",22/2 Vibhavadi-Rangsit Din Daeng Din Daeng Bangkok 10400,(02) 743 3555,https://maps.app.goo.gl/H6KUwfRph64946hu6,13.77414732,100.5542493
TOYOTA,บริษัท พิธานพาณิชย์ จำกัด สาขากรุงเทพมหานคร สำนักงานใหญ่,292 สุรวงศ์ สี่พระยา บางรัก กรุงเทพมหานคร 10500,"Phithan Phanich Co., Ltd. (Bangkok Branch) Head Office",292 Surawong Si Phraya Bang Rak Bangkok 10500,(02) 021 6666,https://maps.app.goo.gl/4JUtAqNze9uVTA5V9,13.7267523,100.5206602
TOYOTA,บริษัท พิธานพาณิชย์ จำกัด สาขากรุงเทพมหานคร เพชรบุรีตัดใหม่,2479 เพชรบุรีตัดใหม่ บางกะปิ ห้วยขวาง กรุงเทพมหานคร 10310,"Phithan Phanich Co., Ltd. (Bangkok Branch) New Phetchaburi",2479 New Phetchaburi Bang Kapi Huai Khwang Bangkok 10310,(02) 021 6666,https://maps.app.goo.gl/cJWNsjuqsorxmuEa7,13.74261591,100.5956662
TOYOTA,บริษัท พิธานพาณิชย์ จำกัด สาขากรุงเทพมหานคร รามอินทรา,365 รามอินทรา อนุสาวรีย์ บางเขน กรุงเทพมหานคร 10220,"Phithan Phanich Co., Ltd. (Bangkok Branch) Ramindra",365 Ramintra Anusawari Bang Khen Bangkok 10220,(02) 021 6666,https://maps.app.goo.gl/NdFZrxi8CPNw7TxP6,13.85951976,100.6248441
TOYOTA,บริษัท พิธานพาณิชย์ จำกัด สาขากรุงเทพมหานคร ทวีวัฒนา,67 บรมราชชนนี ศาลาธรรมสพน์ ทวีวัฒนา กรุงเทพมหานคร 10170,"Phithan Phanich Co., Ltd. (Bangkok Branch) Thawi Watthana",67 Borommaratchachonnani Sala Thammasop Thawi Watthana Bangkok 10170,(02) 021 6666,https://maps.app.goo.gl/wkEaBaRcxweWHx7h9,13.78626793,100.3700841
TOYOTA,บริษัท พิธานพาณิชย์ จำกัด สาขากรุงเทพมหานคร สุขสวัสดิ์,"438, 438/1-2 หมู่ที่ 1 ปากคลองบางปลากด พระสมุทรเจดีย์ สมุทรปราการ 10290","Phithan Phanich Co., Ltd. (Bangkok Branch) Suksawat","438,438/1-2 Moo 1 Pak Khlong Bang Pla Kot Phra Samut Chedi Samut Prakan 10290",(02) 021 6666,https://maps.app.goo.gl/76BsgrfLFxVFFsZT6,13.61309722,100.547408
TOYOTA,บริษัท พาราวินเซอร์ จำกัด สำนักงานใหญ่,968 อาคารอื้อจือเหลียง พระรามที่ 4 สีลม บางรัก กรุงเทพมหานคร 10500,"Bara Windsor & Co., Ltd. Head Office",968 U-Chue-Leang Bldg. Rama 4 Si Lom Bang Rak Bangkok 10500,(02) 095-3222 Press 1,https://maps.app.goo.gl/oaZ2vacx1zfED9ox8,13.72731019,100.5404989
TOYOTA,บริษัท พาราวินเซอร์ จำกัด ศรีนครินทร์,829 ศรีนครินทร์ สวนหลวง สวนหลวง กรุงเทพมหานคร 10250,"Bara Windsor & Co., Ltd. Srinakarin",829 Srinakarin Suan Luang Suan Luang Bangkok 10250,(02) 095-3222 Press 1,https://maps.app.goo.gl/guSckzV6M452uHuL6,13.71833192,100.642913
TOYOTA,บริษัท พาราวินเซอร์ จำกัด ลาดกระบัง,595 หลวงแพ่ง ทับยาว ลาดกระบัง กรุงเทพมหานคร 10520,"Bara Windsor & Co., Ltd. Lagkrabang",595 Luangpang Thap Yao Lat Krabang Bangkok 10520,(02) 095-3222 Press 1,https://maps.app.goo.gl/qBaDgfiUAZhK6heT8,13.7200315,100.7977896
TOYOTA,บริษัท โตโยต้ากรุงเทพยนต์ ผู้จำหน่ายโตโยต้า จำกัด สำนักงานใหญ่,801 พระราม 9 บางกะปิ ห้วยขวาง กรุงเทพมหานคร 10310,"Toyota Krungthepyont Toyota's Dealer Co., Ltd. Head Office",801 Rama 9 Bang Kapi Huai Khwang Bangkok 10310,(02) 319 9999,https://maps.app.goo.gl/rVV6k2MbsjMKBLeFA,13.75095894,100.5966927
TOYOTA,บริษัท โตโยต้ากรุงเทพยนต์ ผู้จำหน่ายโตโยต้า จำกัด ประชาอุทิศ,623 ซอยรามคำแหง 39 เทพลีลา 1 วังทองหลาง วังทองหลาง กรุงเทพมหานคร 10310,"Toyota Krungthepyont Toyota's Dealer Co., Ltd. Pracha-uthit",623 Soi Ramkhamheang 39 Thepleela 1 Wang Thonglang Wang Thonglang Bangkok 10310,(02) 319 9999,https://maps.app.goo.gl/oJAhsL3qQvuQ2wZL9,13.76834897,100.5949951
TOYOTA,บริษัท โตโยต้า เค.มอเตอร์ส ผู้จำหน่ายโตโยต้า จำกัด สำนักงานใหญ่,769 ซอยสุขุมวิท 43 สุขุมวิท คลองตัน คลองเตย กรุงเทพมหานคร 10110,"Toyota K. Motors Toyota's Dealer Co., Ltd. Head Office",769 Soi Sukhumvit 43 Sukhumvit Khlong Tan Khlong Toei Bangkok 10110,(02) 662 6555,https://maps.app.goo.gl/hdP2MEJCDBVXHgn37,13.7287436,100.5725242
TOYOTA,บริษัท โตโยต้า เค.มอเตอร์ส ผู้จำหน่ายโตโยต้า จำกัด บางจาก,3039/4 สุขุมวิท บางจาก พระโขนง กรุงเทพมหานคร 10260,"Toyota K. Motors Toyota's Dealer Co., Ltd. Bangchak",3039/4 Sukhumvit Bang Chak Phra Khanong Bangkok 10260,(02) 662 6555,https://maps.app.goo.gl/7sBsM3PUFMEHRD4x8,13.68733135,100.6103436
TOYOTA,บริษัท โตโยต้า เค.มอเตอร์ส ผู้จำหน่ายโตโยต้า จำกัด เจริญนคร,19-21 เจริญนคร สำเหร่ ธนบุรี กรุงเทพมหานคร 10600,"Toyota K. Motors Toyota's Dealer Co., Ltd. Charoen Nakhon",19-21 Charoen Nakhon Samre Thon Buri Bangkok 10600,(02) 662 6555,https://maps.app.goo.gl/YPgSXYFoFoT1axQe7,13.70895342,100.4953185
TOYOTA,บริษัท โตโยต้า เค.มอเตอร์ส ผู้จำหน่ายโตโยต้า จำกัด พระประแดง,46/19 หมู่ที่ 14 สุขสวัสดิ์ บางครุ พระประแดง สมุทรปราการ 10130,"Toyota K. Motors Toyota's Dealer Co., Ltd. Phrapradang",46/19 Moo 14 Suksawat Bang Khru Phra Pradaeng Samut Prakan 10130,(02) 662 6555,https://maps.app.goo.gl/B56WRgx3yALnS2ybA,13.64240046,100.5252875
TOYOTA,บริษัท โตโยต้า เค.มอเตอร์ส ผู้จำหน่ายโตโยต้า จำกัด เอกชัย,317 เอกชัย บางบอน บางบอน กรุงเทพมหานคร 10150,"Toyota K. Motors Toyota's Dealer Co., Ltd. Ekachai",317 Ekachai Bang Bon Bang Bon Bangkok 10150,(02) 662 6555,https://maps.app.goo.gl/zkB87EJSeo7hy4cT6,13.68009725,100.4372885
TOYOTA,บริษัท โตโยต้า เค.มอเตอร์ส ผู้จำหน่ายโตโยต้า จำกัด พระราม 3,500 พระรามที่ 3 บางโคล่ บางคอแหลม กรุงเทพมหานคร 10120,"Toyota K. Motors Toyota's Dealer Co., Ltd. Rama 3",500 Rama 3 Bang Khlo Bang Kho Laem Bangkok 10120,(02) 662 6555,https://maps.app.goo.gl/XfKKxv5B8eFF3MD6A,13.68676804,100.5185075
TOYOTA,บริษัท โตโยต้า เค.มอเตอร์ส ผู้จำหน่ายโตโยต้า จำกัด ห้วยขวาง,223/8 ประชาราษฎร์บำเพ็ญ ห้วยขวาง ห้วยขวาง กรุงเทพมหานคร 10310,"Toyota K. Motors Toyota's Dealer Co., Ltd. Huay kwang",223/8 Pracharatbumpen Huai Khwang Huai Khwang Bangkok 10310,(02) 662 6555,https://maps.app.goo.gl/BN9mnKcFcFsSJfqQA,13.77910819,100.5755242
TOYOTA,บริษัท โตโยต้า เค.มอเตอร์ส ผู้จำหน่ายโตโยต้า จำกัด ลาดพร้าว,1299 ลาดพร้าว จันทรเกษม จตุจักร กรุงเทพมหานคร 10900,"Toyota K. Motors Toyota's Dealer Co., Ltd. Ladprao",1299 Ladprao Chantharakasem Chatuchak Bangkok 10900,(02) 662 6555,https://maps.app.goo.gl/LDq74dnUZyHUsMr37,13.80840415,100.5700687
TOYOTA,บริษัท โตโยต้า เค.มอเตอร์ส ผู้จำหน่ายโตโยต้า จำกัด รามคำแหง,2 ซอยรามคำแหง 38 (กานดา) รามคำแหง หัวหมาก บางกะปิ กรุงเทพมหานคร 10240,"Toyota K. Motors Toyota's Dealer Co., Ltd. Ram Kamhang",2 Soi Ram Kham Haeng 38 (Kanda) Ramkhamheang Hua Mak Bang Kapi Bangkok 10240,(02) 662 6555,https://maps.app.goo.gl/JpwJPFm4NrPNiy7aA,13.76135973,100.6381431
TOYOTA,บริษัท โตโยต้า เค.มอเตอร์ส ผู้จำหน่ายโตโยต้า จำกัด วิภาวดี,69/1 ซอยวิภาวดี 46 วิภาวดี-รังสิต ลาดยาว จตุจักร กรุงเทพมหานคร 10900,"Toyota K. Motors Toyota's Dealer Co., Ltd. Vipavadee",69/1 Soi Vibhavadi 46 Vibhavadi-Rangsit Lat Yao Chatuchak Bangkok 10900,(02) 662 6555,https://maps.app.goo.gl/cxSABy2ASYRRK5zn6,13.84261963,100.5594646
TOYOTA,บริษัท โตโยต้า เค.มอเตอร์ส ผู้จำหน่ายโตโยต้า จำกัด สุขาภิบาล 1,24/79 นวมินทร์ นวลจันทร์ บึงกุ่ม กรุงเทพมหานคร 10240,"Toyota K. Motors Toyota's Dealer Co., Ltd. Sukha phiban 1",24/79 Nawamin Nuan Chan Bueng Kum Bangkok 10240,(02) 662 6555,https://maps.app.goo.gl/ZUYCqFJ84dWQ5iWs8,13.82063218,100.6548804
TOYOTA,บริษัท โตโยต้า เค.มอเตอร์ส ผู้จำหน่ายโตโยต้า จำกัด ถนนจันทน์,80 จันทน์ ทุ่งวัดดอน สาทร กรุงเทพมหานคร 10120,"Toyota K. Motors Toyota's Dealer Co., Ltd. Chan Road",80 Chan Thung Wat Don Sathon Bangkok 10120,(02) 662 6555,https://maps.app.goo.gl/331z25Sv51VU5Hot8,13.70570824,100.5341518
TOYOTA,บริษัท โตโยต้า เค.มอเตอร์ส ผู้จำหน่ายโตโยต้า จำกัด เพชรเกษม,153 เพชรเกษม หนองค้างพลู หนองแขม กรุงเทพมหานคร 10160,"Toyota K. Motors Toyota's Dealer Co., Ltd. Petchkasem",153 Phetkasem Nong Khang Phlu Nong Khaem Bangkok 10160,(02) 662 6555,https://maps.app.goo.gl/aF8S3fCQFtFHUJn76,13.70703245,100.3657484
TOYOTA,บริษัท โตโยต้า เค.มอเตอร์ส ผู้จำหน่ายโตโยต้า จำกัด รามอินทรา,76 รามอินทรา มีนบุรี มีนบุรี กรุงเทพมหานคร 10510,"Toyota K. Motors Toyota's Dealer Co., Ltd. Ramintra",76 Ramintra Min Buri Min Buri Bangkok 10510,(02) 662 6555,https://maps.app.goo.gl/haQnjARXsnVBcpjn9,13.81619141,100.7101502
TOYOTA,บริษัท โตโยต้า เค.มอเตอร์ส ผู้จำหน่ายโตโยต้า จำกัด สะพานใหม่,311 พหลโยธิน อนุสาวรีย์ บางเขน กรุงเทพมหานคร 10220,"Toyota K. Motors Toyota's Dealer Co., Ltd. Sapanmai",311 Phahon Yothin Anusawari Bang Khen Bangkok 10220,(02) 662 6555,https://maps.app.goo.gl/Eekfy9sXnXbwAp3u8,13.88462372,100.6017126
TOYOTA,บริษัท โตโยต้า เค.มอเตอร์ส ผู้จำหน่ายโตโยต้า จำกัด ประชาอุทิศ,3 ประชาอุทิศฝั่งซ้าย บางมด ทุ่งครุ กรุงเทพมหานคร 10140,"Toyota K. Motors Toyota's Dealer Co., Ltd. Prachautit",3 Prachautit (Left) Bang Mot Thung Khru Bangkok 10140,(02) 662 6555,https://maps.app.goo.gl/cPbLBBPRJXp4fufR8,13.65409273,100.4978177
TOYOTA,บริษัท โตโยต้า เค.มอเตอร์ส ผู้จำหน่ายโตโยต้า จำกัด บางโคล่,299/10 พระรามที่ 3 บางโคล่ บางคอแหลม กรุงเทพมหานคร 10120,"Toyota K. Motors Toyota's Dealer Co., Ltd. Bangkloe",299/10 Rama 3 Bang Khlo Bang Kho Laem Bangkok 10120,(02) 662 6555,https://maps.app.goo.gl/MP6UcW77YDD773gN8,13.69038932,100.5067593
TOYOTA,บริษัท โตโยต้า เค.มอเตอร์ส ผู้จำหน่ายโตโยต้า จำกัด ศรีนครินทร์เทพารักษ์,409 หมู่ที่ 5 ศรีนครินทร์ สำโรงเหนือ เมืองสมุทรปราการ สมุทรปราการ 10270,"Toyota K. Motors Toyota's Dealer Co., Ltd. Srinakarinteparuk",409 Moo 5 Srinakarin Samrong Nuea Mueang Samut Prakan Samut Prakan 10270,(02) 662 6555,https://maps.app.goo.gl/3JjpcH8DiRDDZsoy8,13.6412151,100.6345463
TOYOTA,บริษัท โตโยต้า เค.มอเตอร์ส ผู้จำหน่ายโตโยต้า จำกัด วิภาวดี 60,21/21 วิภาวดี-รังสิต ตลาดบางเขน หลักสี่ กรุงเทพมหานคร 10120,"Toyota K. Motors Toyota's Dealer Co., Ltd. Vibhavadi 60",21/21 Vibhavadi-Rangsit Talat Bang Khen Lak Si Bangkok 10120,(02) 662 6555,https://maps.app.goo.gl/sk3XNW6zhPVAHL17A,13.86556598,100.5717291
TOYOTA,บริษัท โตโยต้ามหานคร จำกัด พหลโยธิน,1194/3 พหลโยธิน จอมพล จตุจักร กรุงเทพมหานคร 10900,"Toyota Metropolitan Co., Ltd. Phaholyothin",1194/3 Phahon Yothin Chomphon Chatuchak Bangkok 10900,(02) 021 8000,https://maps.app.goo.gl/nfpTAkdbx56hs4gL8,13.81780013,100.5628909
TOYOTA,บริษัท โตโยต้ามหานคร จำกัด บางนา,3604 สุขุมวิท บางนา บางนา กรุงเทพมหานคร 10260,"Toyota Metropolitan Co., Ltd.  Bangna",3604 Sukhumvit Bang Na Bang Na Bangkok 10260,(02) 021 8000,https://maps.app.goo.gl/jUfuwcQ9AmJVyrgw5,13.66579166,100.6031069
TOYOTA,"บริษัท โตโยต้ามหานคร จำกัด
หลักสี่",202/35 แจ้งวัฒนะ ตลาดบางเขน หลักสี่ กรุงเทพมหานคร 10210,"Toyota Metropolitan Co., Ltd. Laksi ",202/35 Chaengwattana Talat Bang Khen Lak Si Bangkok 10210,(02) 021 8000,https://maps.app.goo.gl/LBeyk41oeo75kPLL6,13.8819097,100.586699
TOYOTA,บริษัท โตโยต้ามหานคร จำกัด ราษฎร์บูรณะ,1194 สุขสวัสดิ์ ราษฎร์บูรณะ ราษฎร์บูรณะ กรุงเทพมหานคร 10140,"Toyota Metropolitan Co., Ltd. Ratburana",1194 Suksawat Rat Burana Rat Burana Bangkok 10140,(02) 021 8000,https://maps.app.goo.gl/46pfNHXDenEfkhoV8,13.66785131,100.5144069
TOYOTA,บริษัท โตโยต้ามหานคร จำกัด พระราม9,"1112,1114,1116 พระราม 9 สวนหลวง สวนหลวง กรุงเทพมหานคร 10320","Toyota Metropolitan Co., Ltd. Rama 9 ","1112,1114,1116 Rama 9 Suan Luang Suan Luang Bangkok 10320",(02) 021 8000,https://maps.app.goo.gl/DFzDyqGT2Jg2Knsd8,13.74228737,100.6336041
TOYOTA,บริษัท โตโยต้ามหานคร จำกัด ประชาชื่น,859 ประชาชื่น วงศ์สว่าง บางซื่อ กรุงเทพมหานคร 10800,"Toyota Metropolitan Co., Ltd. Prachachuen",859 Prachachuen Wong Sawang Bang Sue Bangkok 10800,(02) 021 8000,https://maps.app.goo.gl/F99LqEECF3Qr5Rzu7,13.82666414,100.5379509
TOYOTA,บริษัท โตโยต้ามหานคร จำกัด วงแหวนรอบนอก,"22,22/1 กาญจนาภิเษก บางแค บางแค กรุงเทพมหานคร 10160","Toyota Metropolitan Co., Ltd. Outerring","22,22/1 Kanchanaphisek Bang Khae Bang Khae Bangkok 10160",(02) 021 8000,https://maps.app.goo.gl/tZHAJq2AgxVAAgor5,13.68997079,100.4081515
TOYOTA,บริษัท โตโยต้ามหานคร จำกัด ดอนเมือง,"35,35/1 พหลโยธิน สนามบิน ดอนเมือง กรุงเทพมหานคร 10210","Toyota Metropolitan Co., Ltd. Donmuang","35,35/1 Phahon Yothin Sanam Bin Don Mueang Bangkok 10210",(02) 021 8000,https://maps.app.goo.gl/Dby7fJ16LTiFBsk37,13.94452498,100.6230527
TOYOTA,บริษัท โตโยต้ามหานคร จำกัด วังหิน,"574,576 ลาดพร้าว-วังหิน ลาดพร้าว ลาดพร้าว กรุงเทพมหานคร 10230","Toyota Metropolitan Co., Ltd. Wanghin","574,576 Ladprao-Wanghin Lat Phrao Lat Phrao Bangkok 10230",(02) 021 8000,https://maps.app.goo.gl/UmFPuecikSHrqXPa9,13.81746299,100.5914621
TOYOTA,บริษัท โตโยต้ามหานคร จำกัด สำนักงานใหญ่,777 หมู่ที่ 2 สายไหม สายไหม สายไหม กรุงเทพมหานคร 10220,"Toyota Metropolitan Co., Ltd. Head Office",777 Moo 2 Saimai Road Sai Mai Sai Mai Bangkok 10220,(02) 021 8000,https://maps.app.goo.gl/53wCNJEGRpJdsYbG9,13.92153886,100.6543558
TOYOTA,บริษัท โตโยต้ามหานคร จำกัด เทพารักษ์,111 หมู่ที่ 9 เทพารักษ์ บางพลีใหญ่ บางพลี สมุทรปราการ 10540,"Toyota Metropolitan Co., Ltd. Theparak ",111 Moo 9 Thepharak Bang Phli Yai Bang Phli Samut Prakan 10540,(02) 021 8000,https://maps.app.goo.gl/m4dCwGWX1e2f9wsg7,13.60219055,100.7096532
TOYOTA,บริษัท โตโยต้า ธนบุรี จำกัด สำนักงานใหญ่,313/1 รัชดาภิเษก บุคคโล ธนบุรี กรุงเทพมหานคร 10600,"Toyota Thonburi Co., Ltd. Head Office",313/1 Ratchadaphisek Bukkhalo Thon Buri Bangkok 10600,(02) 479 9009,https://maps.app.goo.gl/P7i4UoQUjycY1iHq5,13.70916164,100.4805616
TOYOTA,บริษัท โตโยต้า ธนบุรี จำกัด สำนักงานใหญ่ จรัญสนิทวงศ์,464 จรัญสนิทวงศ์ บางยี่ขัน บางพลัด กรุงเทพมหานคร 10700,"Toyota Thonburi Co., Ltd. Charansanitwong",464 Charansanitwong  Bang Yi Khan Bang Phlat Bangkok 10700,(02) 479 9009,https://maps.app.goo.gl/PgUfF9ao46fCwNTh7,13.7807196,100.4888185
TOYOTA,บริษัท โตโยต้า ธนบุรี จำกัด เพชรบุรีตัดใหม่,2914 เพชรบุรีตัดใหม่ บางกะปิ ห้วยขวาง กรุงเทพมหานคร 10240,"Toyota Thonburi Co., Ltd. New Petchaburi",2914 New Phetchaburi Bang Kapi Huai Khwang Bangkok 10240,(02) 479 9009,https://maps.app.goo.gl/uJAB9EUWx4SH3YGN6,13.74379398,100.5877847
TOYOTA,บริษัท โตโยต้า ธนบุรี จำกัด เจริญนคร,670/1 เจริญนคร บางลำภูล่าง คลองสาน กรุงเทพมหานคร 10600,"Toyota Thonburi Co., Ltd. Charoen Nakhon",670/1 Charoen Nakhon Bang Lamphu Lang Khlong San Bangkok 10600,(02) 479 9009,https://maps.app.goo.gl/1UchPcMeREjbhGFo7,13.71640947,100.5063583
TOYOTA,บริษัท โตโยต้า ธนบุรี จำกัด พระราม 2,448 พระรามที่ 2 บางมด จอมทอง กรุงเทพมหานคร 10150,"Toyota Thonburi Co., Ltd. Rama 2 ",448 Rama 2 Bang Mot Chom Thong Bangkok 10150,(02) 479 9009,https://maps.app.goo.gl/qUE44yQGe53WUNJC8,13.68075552,100.4716465
TOYOTA,บริษัท โตโยต้า ธนบุรี จำกัด ลาดพร้าว 138,3467 ลาดพร้าว คลองจั่น บางกะปิ กรุงเทพมหานคร 10240,"Toyota Thonburi Co., Ltd. Ladprao 138 ",3467 Ladprao Khlong Chan Bang Kapi Bangkok 10240,(02) 479 9009,https://maps.app.goo.gl/muDnUYYJmxFxBoJ78,13.7705392,100.6371226
TOYOTA,บริษัท โตโยต้า ธนบุรี จำกัด รามคำแหง,902/2 รามคำแหง หัวหมาก บางกะปิ กรุงเทพมหานคร 10240,"Toyota Thonburi Co., Ltd. Ramkamhang",902/2 Ramkhamheang Hua Mak Bang Kapi Bangkok 10240,(02) 479 9009,https://maps.app.goo.gl/24fj9G3LBFfYTP9y9,13.76542489,100.6542625
TOYOTA,บริษัท โตโยต้า ธนบุรี จำกัด อ่อนนุช,1023 อ่อนนุช สวนหลวง สวนหลวง กรุงเทพมหานคร 10250,"Toyota Thonburi Co., Ltd. On-Nuch ",1023 On Nut Suan Luang Suan Luang Bangkok 10250,(02) 479 9009,https://maps.app.goo.gl/Mj82s1LpFFq5UjCc6,13.7094861,100.6150456
TOYOTA,บริษัท โตโยต้า ธนบุรี จำกัด วงศ์สว่าง,280/3 วงศ์สว่าง บางซื่อ บางซื่อ กรุงเทพมหานคร 10800,"Toyota Thonburi Co., Ltd. Wongsawang ",280/3 Wongsawang Bang Sue Bang Sue Bangkok 10800,(02) 479 9009,https://maps.app.goo.gl/bEmXHcM1hfPLNb9TA,13.82003235,100.519781
TOYOTA,บริษัท โตโยต้า ธนบุรี จำกัด ประดิษฐ์มนูธรรม,27 ประดิษฐ์มนูธรรม ลาดพร้าว ลาดพร้าว กรุงเทพมหานคร 10230,"Toyota Thonburi Co., Ltd. Praditmanutham",27 Praditmanutham Lat Phrao Lat Phrao Bangkok 10230,(02) 479 9009,https://maps.app.goo.gl/wM7VRqWoUnMVEz9Q7,13.79740842,100.6130156
TOYOTA,บริษัท โตโยต้า ธนบุรี จำกัด สุขาภิบาล 3,329 รามคำแหง สะพานสูง สะพานสูง กรุงเทพมหานคร 10240,"Toyota Thonburi Co., Ltd. Suklaphibal 3",329 Ramkhamheang Saphan Sung Saphan Sung Bangkok 10240,(02) 479 9009,https://maps.app.goo.gl/2a1h7D9FF5k51KXD6,13.79064311,100.6977648
TOYOTA,บริษัท โตโยต้า ธนบุรี จำกัด ร่มเกล้า,141 หมู่ที่ 5 ร่มเกล้า คลองสามประเวศ ลาดกระบัง กรุงเทพมหานคร 10520,"Toyota Thonburi Co., Ltd. Romklao",141 Moo 5 Romklao Khlong Sam Prawet Lat Krabang Bangkok 10520,(02) 479 9009,https://maps.app.goo.gl/LUm5JiWHHzar2T3w8.,13.76776704,100.7461386
TOYOTA,บริษัท โตโยต้า ซัมมิท จำกัด สำนักงานใหญ่,15/1 หมู่ที่ 14 บางนา-ตราด กม.9.5 บางพลีใหญ่ บางพลี สมุทรปราการ 10540,"Toyota Summit Co., Ltd. Head Office",15/1 Moo 14 Bangna-Trad Km. 9.5 Bang Phli Yai Bang Phli Samut Prakan 10540,(02) 022 6555,https://maps.app.goo.gl/ZtG83A2vVneCDFPE8,13.64592227,100.6925128
TOYOTA,บริษัท โตโยต้า ซัมมิท จำกัด ศรีนครินทร์,18 หมู่ที่ 7 ศรีนครินทร์ บางเมือง เมืองสมุทรปราการ สมุทรปราการ 10270,"Toyota Summit Co., Ltd. Srinakarin",18 Moo 7 Srinakarin Bang Mueang Mueang Samut Prakan Samut Prakan 10270,(02) 022 6555,https://maps.app.goo.gl/9WzfpoDvucm2BeSS7,13.60915953,100.6163427
TOYOTA,บริษัท โตโยต้า ซัมมิท จำกัด รัชดาภิเษก,44 รัชดาภิเษก ห้วยขวาง ห้วยขวาง กรุงเทพมหานคร 10310,"Toyota Summit Co., Ltd. Ratchadapisek",44 Ratchadaphisek Huai Khwang Huai Khwang Bangkok 10310,(02) 022 6555,https://maps.app.goo.gl/33ncQ94Szs7wRFzk7,13.76098702,100.5664881
TOYOTA,บริษัท โตโยต้านฤมิต จำกัด สำนักงานใหญ่,1501 นิมิตใหม่ ทรายกองดิน คลองสามวา กรุงเทพมหานคร 10510,"Toyota Narumit Co., Ltd. Head Office",1501 Nimitrmai Sai Kong Din Khlong Sam Wa Bangkok 10510,(02) 136 7000,https://maps.app.goo.gl/vsSkRDswKR9jaeor8,13.85386807,100.7317839
TOYOTA,บริษัท โตโยต้า กรุงไทย จำกัด สำนักงานใหญ่,491 รามอินทรา รามอินทรา คันนายาว กรุงเทพมหานคร 10230,"Toyota Krungthai Co., Ltd. Head Office",491 Ramintra Ram Inthra Khan Na Yao Bangkok 10230,(02) 510 9999 ext. 1,https://maps.app.goo.gl/BKUL8n5NQVAwhqpS9,13.83286654,100.6688264
TOYOTA,บริษัท โตโยต้า กรุงไทย จำกัด เกษตร,2368 พหลโยธิน เสนานิคม จตุจักร กรุงเทพมหานคร 10900,"Toyota Krungthai Co., Ltd. Kaset",2368 Phahon Yothin Sena Nikhom Chatuchak Bangkok 10900,(02) 510 9999 ext. 2,https://maps.app.goo.gl/j3tWAECXiyXNfbgp6,13.84383473,100.5788305
TOYOTA,บริษัท โตโยต้า กรุงไทย จำกัด ตลิ่งชัน,128/9 บรมราชชนนี ตลิ่งชัน ตลิ่งชัน กรุงเทพมหานคร 10170,"Toyota Krungthai Co., Ltd. Talingchan",128/9 Borommaratchachonnani Taling Chan Taling Chan Bangkok 10170,(02) 510 9999 ext. 3,https://maps.app.goo.gl/1xbBK7GZCwnjMGaM7,13.78430567,100.4538405
TOYOTA,บริษัท โตโยต้า ลิบรา จำกัด สำนักงานใหญ่,650 ประเสริฐมนูกิจ ลาดพร้าว ลาดพร้าว กรุงเทพมหานคร 10310,"Toyota Libra Co., Ltd. Head Office",650 Prasertmanukit Lat Phrao Lat Phrao Bangkok 10310,(02) 553 2233,https://maps.app.goo.gl/ppj2kjj6zzwyH9gU9,13.82858458,100.6240988
TOYOTA,บริษัท โตโยต้าภูมิพัฒนา จำกัด สำนักงานใหญ่,141 สุวินทวงศ์ แสนแสบ มีนบุรี กรุงเทพมหานคร 10510,"Toyota Phumpattana Co., Ltd. Head Office",141 Suvintavong Saen Saep Min Buri Bangkok 10510,(02) 919 5919,https://maps.app.goo.gl/fhmCT8tXEGkZtDBM9,13.81651254,100.7456064
TOYOTA,บริษัท โตโยต้าภูมิพัฒนา จำกัด สวนหลวง,388 เฉลิมพระเกียรติ ร.9 หนองบอน ประเวศ กรุงเทพมหานคร 10250,"Toyota Phumpattana Co., Ltd. Suan Luang",388 Chaloem Phrakiat Rama 9 Nong Bon Prawet Bangkok 10250,(02) 919 5919,https://maps.app.goo.gl/iSPnNdpbQZResUEU7,13.6939519,100.6724451
TOYOTA,บริษัท โตโยต้าภูมิพัฒนา จำกัด หนองจอก,88 เลียบวารี กระทุ่มราย หนองจอก กรุงเทพมหานคร 10530,"Toyota Phumpattana Co., Ltd. Nongchok",88 Liapwari Krathum Rai Nong Chok Bangkok 10530,(02) 919 5919,https://maps.app.goo.gl/ZUPYrzV622AcjUE47,13.85621894,100.8535852
TOYOTA,บริษัท โตโยต้าแอท ยูไนเต็ด จำกัด บางปู,55 หมู่ที่ 1 สุขุมวิท ท้ายบ้าน เมืองสมุทรปราการ สมุทรปราการ 10280,"oyota @ United Co., Ltd. Bangpoo",55 Moo 1 Sukhumvit Thai Ban Mueang Samut Prakan Samut Prakan 10280,(02) 753 3388,https://maps.app.goo.gl/3conDZr2UDdmHb2z7,13.57056102,100.6060646
TOYOTA,บริษัท โตโยต้าแอท ยูไนเต็ด จำกัด สำนักงานใหญ่,149 หมู่ที่ 3 เทพารักษ์ เทพารักษ์ เมืองสมุทรปราการ สมุทรปราการ 10270,"Toyota @ United Co., Ltd. Head Office",149 Moo 3 Thepharak Thepharak Mueang Samut Prakan Samut Prakan 10270,(02) 753 3388,https://maps.app.goo.gl/pxgNt33J7eYwjDHD6,13.6349198,100.6129051
TOYOTA,บริษัท โตโยต้าแอท ยูไนเต็ด จำกัด พระราม 3,1091 พระรามที่ 3 ช่องนนทรี ยานนาวา กรุงเทพมหานคร 10120,"Toyota @ United Co., Ltd. Rama 3 ",1091 Rama 3 Chong Nonsi Yan Nawa Bangkok 10120,(02) 753 3388,https://maps.app.goo.gl/ycLT2Yjt8yNydnKZ6,13.69777442,100.5458517
TOYOTA,บริษัท โตโยต้าแอท ยูไนเต็ด จำกัด ลาดพร้าว,1900/79 ลาดพร้าว วังทองหลาง วังทองหลาง กรุงเทพมหานคร 10310,"Toyota @ United Co., Ltd. Latphrao",1900/79 Latphrao Wang Thonglang Wang Thonglang Bangkok 10310,(02) 753 3388,https://maps.app.goo.gl/N59nzUxj7b1MQzao8,13.79019289,100.6016817
TOYOTA,"บริษัท โตโยต้าแอท ยูไนเต็ด จำกัด
บางนา",88/8 หมู่ที่ 12 - บางแก้ว บางพลี สมุทรปราการ 10540,"Toyota @ United Co., Ltd. Bangna",88/8 Moo 12 - Bang Kaeo Bang Phli Samut Prakan 10540,(02) 753 3388,https://maps.app.goo.gl/pwT7Tsy6WyLtUMKL6,13.66058795,100.661807
TOYOTA,บริษัท โตโยต้า ที บี เอ็น จำกัด สำนักงานใหญ่,"1306,1308 บางนา-ตราด กม. 12 บางนา บางนา กรุงเทพมหานคร 10260","Toyota T B N Co., Ltd. Head Office","1306,1308 Bangna-Trad Bang Na Bang Na Bangkok 10260",(02) 329 8800,https://maps.app.goo.gl/KkkWcNiM3PTrf36L6,13.66717536,100.6359277
TOYOTA,บริษัท โตโยต้า ที บี เอ็น จำกัด สุวรรณภูมิ-อ่อนนุช,"318,318/1-3 ลาดกระบัง ลาดกระบัง ลาดกระบัง กรุงเทพมหานคร 10520","Toyota T B N Co., Ltd. Suvarnabhumi - On Nuch ","318,318/1-3 Ladkrabang Lat Krabang Lat Krabang Bangkok 10520",(02) 329 8800,https://maps.app.goo.gl/cPncKcHeGoCG6t8d8,13.72193167,100.7278985
TOYOTA,บริษัท โตโยต้า ที บี เอ็น จำกัด กาญจนาภิเษก,8/8 กาญจนาภิเษก ศาลาธรรมสพน์ ทวีวัฒนา กรุงเทพมหานคร 10170,"Toyota T B N Co., Ltd. Kanchanaphisek",8/8 Kanchanaphisek Sala Thammasop Thawi Watthana Bangkok 10170,(02) 329 8800,https://maps.app.goo.gl/pQidZkFumz33FEGfA,13.76865034,100.4069545
TOYOTA,บริษัท โตโยต้า บางกอก จำกัด สำนักงานใหญ่,48 เจริญราษฎร์ บางโคล่ บางคอแหลม กรุงเทพมหานคร 10120,"Toyota Bangkok Co., Ltd. Head Office",48 Charoenraj Bang Khlo Bang Kho Laem Bangkok 10120,(02) 998 0999,https://maps.app.goo.gl/RMBYmrBzU3QixpBq6,13.70312688,100.5163218
TOYOTA,บริษัท โตโยต้า บางกอก จำกัด ดอนเมือง,42/3-4 หมู่ที่ 9 วิภาวดี-รังสิต สีกัน ดอนเมือง กรุงเทพมหานคร 10210,"Toyota Bangkok Co., Ltd. Donmuang",42/3-4 Moo 9 Vibhavadi-Rangsit Si Kan Don Mueang Bangkok 10210,(02) 998 0999,https://maps.app.goo.gl/UCVHNQzeeF8jEAi69,13.94412553,100.6143388
TOYOTA,บริษัท โตโยต้า บางกอก จำกัด กาญจนาภิเษก,87/ 521-522 กาญจนาภิเษก บางบอน บางบอน กรุงเทพมหานคร 10150,"Toyota Bangkok Co., Ltd. Kanchanaphisek",87/ 521-522 Kanchanaphisek Bang Bon Bang Bon Bangkok 10150,(02) 998 0999,https://maps.app.goo.gl/SwWb7b2iu4Yixhnx6,13.66621247,100.4051129
TOYOTA,บริษัท โตโยต้า เอ็มไพร์ส จำกัด สำนักงานใหญ่,38/3 หมู่ที่ 11 ตลิ่งชัน-สุพรรณบุรี ฉิมพลี ตลิ่งชัน กรุงเทพมหานคร 10170,"Toyota Empires Co., Ltd. Head Office",38/3 Moo 11 Talingchan-Suphanburi Chimphli Taling Chan Bangkok 10170,(02) 884 4811,https://maps.app.goo.gl/GDdgD51oD7ThXvCL7,13.79166784,100.4104595
TOYOTA,บริษัท โตโยต้า เอ็มไพร์ส จำกัด บางบอน,1281/ 6 เอกชัย บางบอน บางบอน กรุงเทพมหานคร 10150,"Toyota Empires Co., Ltd. Bangbon",1281/ 6 Ekachai Bang Bon Bang Bon Bangkok 10150,(02) 884 4811,https://maps.app.goo.gl/2ssoAiLTHZirkjRA9,13.64468953,100.3802267
TOYOTA,บริษัท โตโยต้า สยามออโต้ ซาลอน จำกัด สำนักงานใหญ่,167 หมู่ที่ 1 สุขาภิบาล 5 ออเงิน สายไหม กรุงเทพมหานคร 10220,"Toyota Siam Auto Salon Co., Ltd.
Head Office",167 Moo 1 Sukhapiban 5 O Ngoen Sai Mai Bangkok 10220,(02) 767 7999,https://maps.app.goo.gl/VJxKmzYYiuZdo3r16,13.90496215,100.6687217
TOYOTA,บริษัท โตโยต้า สยามออโต้ ซาลอน จำกัด บางแค,680/2 เพชรเกษม บางหว้า ภาษีเจริญ กรุงเทพมหานคร 10160,"Toyota Siam Auto Salon Co., Ltd. Bangkae",680/2 Phetkasem Bang Wa Phasi Charoen Bangkok 10160,(02) 767 7999,https://maps.app.goo.gl/fnivg3QF9A8YWiq87,13.71303095,100.4311396
TOYOTA,บริษัท โตโยต้า เจดี คาร์ส จำกัด สำนักงานใหญ่,18/7-9 หมู่ที่ 8 กัลปพฤกษ์ บางขุนเทียน จอมทอง กรุงเทพมหานคร 10150,"Toyota JD Cars Co., Ltd. Head Office",8/7-9 Moo 8 Kanlapaphuek Bang Khun Thian Chom Thong Bangkok 10150,(02) 453 1933,https://maps.app.goo.gl/n6WcWz3ts2AwKoXc8,13.70130527,100.4446087
TOYOTA,บริษัท โตโยต้านครธน จำกัด สำนักงานใหญ่,79/99 หมู่ที่ 4 พระรามที่ 2 แสมดำ บางขุนเทียน กรุงเทพมหานคร 10150,"Toyota Nakornthon Co., Ltd. Head Office",79/99 Moo 4 Rama 2 Samae Dam Bang Khun Thian Bangkok 10150,(02) 450 9555,https://maps.app.goo.gl/cwz23EjUKWjzW8vS7,13.62979529,100.3977686
TOYOTA,บริษัท โตโยต้านครธน จำกัด เทพารักษ์,55/99 หมู่ที่ 3 เทพารักษ์ บางพลีใหญ่ บางพลี สมุทรปราการ 10540,"Toyota Nakornthon Co., Ltd. Teparak",55/99 Moo 3 Thepharak Bang Phli Yai Bang Phli Samut Prakan 10540,(02) 450 9555,https://maps.app.goo.gl/7Enutc3njQgXDbeeA,13.60961321,100.6784903
TOYOTA,บริษัท โตโยต้านครธน จำกัด บางบ่อ,59/1 หมู่ที่ 1 บางบ่อ บางบ่อ สมุทรปราการ 10560,"Toyota Nakornthon Co., Ltd. Bang bo",459/1 Moo1 Bang Bo Bang Bo Samut Prakan 10560,(02) 450 9555,https://maps.app.goo.gl/XkEky2dayxMXEwmg7,13.57983889,100.8365216
TOYOTA,บริษัท โตโยต้านครธน จำกัด สรงประภา,459 สรงประภา ดอนเมือง ดอนเมือง กรุงเทพมหานคร 10210,"Toyota Nakornthon Co., Ltd. Songprapa",459 Songprapa Don Mueang Don Mueang Bangkok 10210,(02) 450 9555,https://maps.app.goo.gl/zfrEQgus9gCS7T1D9,13.9304313,100.5750563
TOYOTA,บริษัท โตโยต้าชัยรัชการ จำกัด บางนา-ตราด,21/3 หมู่ที่ 7 บางนา-ตราด กม.16 บางโฉลง บางพลี สมุทรปราการ 10540,"Toyota Chairatchakarn Co., Ltd. Bangna-Trad",21/3 Moo 7 Bangna-Trad Bang Chalong Bang Phli Samut Prakan 10540,"(02) 312 6969
(02) 312 6666",https://maps.app.goo.gl/Ze693PA9ZjwTSBmr9,13.61653774,100.7496378
TOYOTA,บริษัท โตโยต้าชัยรัชการ จำกัด เกษตรนวมินทร์,111 ประเสริฐมนูกิจ รามอินทรา คันนายาว กรุงเทพมหานคร 10230,"Toyota Chairatchakarn Co., Ltd. Kaset-Nawamin",111 Prasertmanukit Ram Inthra Khan Na Yao Bangkok 10230,"(02) 312 6969
(02) 312 6666",https://maps.app.goo.gl/kUN74LM4EyPR7WPp6,13.81229083,100.6689526
TOYOTA,บริษัท โตโยต้า สุวรรณภูมิ จำกัด สำนักงานใหญ่,62/2 หมู่ที่ 9 เทพารักษ์ บางปลา บางพลี สมุทรปราการ 10540,"Toyota Suvarnabhumi Co., Ltd. Head Office",62/2 Moo 9 Thepharak Bang Pla Bang Phli Samut Prakan 10540,(02) 703 3888,https://maps.app.goo.gl/wgwAjRbFtPJqpZVx8,13.59476136,100.760912
TOYOTA,"บริษัท โตโยต้า สุวรรณภูมิ จำกัด
กิ่งแก้ว","188,188/1-2 หมู่ที่ 14 กิ่งแก้ว ราชาเทวะ บางพลี สมุทรปราการ 10540","Toyota Suvarnabhumi Co., Ltd. Kingkaew","188,188/1-2 Moo 14 Kingkaew Racha Thewa Bang Phli Samut Prakan 10540",(02) 703 3888,https://maps.app.goo.gl/zT9Y66q8HwudMqFv9,13.69790908,100.7313191
TOYOTA,"บริษัท โตโยต้า สุวรรณภูมิ จำกัด
เพชรเกษม 81",821 ซอยเพชรเกษม 81/3 เพชรเกษม หนองค้างพลู หนองแขม กรุงเทพมหานคร 10160,"Toyota Suvarnabhumi Co., Ltd. Petchkasem 81",821 Soi Petchkasem 81/3 Phetkasem Nong Khang Phlu Nong Khaem Bangkok 10160,(02) 703 3888,https://maps.app.goo.gl/9eVCUM2qwR8WRhNn7,13.70492359,100.3386577
TOYOTA,"บริษัท โตโยต้า บัสส์ จำกัด
สำนักงานใหญ่",888 หมู่ที่ 12 เสรีไทย คันนายาว คันนายาว กรุงเทพมหานคร 10230,"Toyota Buzz Co., Ltd. Head Office",888 Moo 12 Sereethai Khan Na Yao Khan Na Yao Bangkok 10230,(02) 375 5115,https://maps.app.goo.gl/NXWNkBSfkRvhbq1a6,13.7858737,100.6760337
TOYOTA,บริษัท โตโยต้า บัสส์ จำกัด เกษตร-นวมินทร์,2 ประเสริฐมนูกิจ เกษตร-นวมินทร์ เสนานิคม จตุจักร กรุงเทพมหานคร 10900,"Toyota Buzz Co., Ltd. Kaset-Nawamin",2 Kaset-Nawamin Sena Nikhom Chatuchak Bangkok 10900,(02) 375 5115,https://maps.app.goo.gl/pdqiSThvuZgobPiu6,13.83998233,100.5807856
TOYOTA,บริษัท โตโยต้า บัสส์ จำกัด เพชรเกษม 88,584 เพชรเกษม บางแคเหนือ บางแค กรุงเทพมหานคร 10160,"Toyota Buzz Co., Ltd. Petchkasem 88",584 Phetkasem Bang Khae Nuea Bang Khae Bangkok 10160,(02) 375 5115,https://maps.app.goo.gl/NYVQMqjQCnwNSgoJ6,13.7108109,100.4022696
TOYOTA,บริษัท โตโยต้า บัสส์ จำกัด ราชพฤกษ์,55 ราชพฤกษ์ ตลิ่งชัน ตลิ่งชัน กรุงเทพมหานคร 10170,"Toyota Buzz Co., Ltd. Rajchaphruek",55 Ratcha Phruk Taling Chan Taling Chan Bangkok 10170,(02) 375 5115,https://maps.app.goo.gl/XXhk3GbF49Vie8LU7,13.79006156,100.4468815
TOYOTA,บริษัท โตโยต้า บัสส์ จำกัด พระราม 2,36 พระรามที่ 2 ท่าข้าม บางขุนเทียน กรุงเทพมหานคร 10150,"Toyota Buzz Co., Ltd. Rama 2 ",36 Rama 2 Tha Kham Bang Khun Thian Bangkok 10150,(02) 375 5115,https://maps.app.goo.gl/zkRKBfskyMCdeSoLA,13.6710743,100.4519886
TOYOTA,บริษัท โตโยต้า บัสส์ จำกัด วิภาวดี,999 วิภาวดี-รังสิต จตุจักร จตุจักร กรุงเทพมหานคร 10900,"Toyota Buzz Co., Ltd. Vibhavadi",999 Vibhavadi-Rangsit Chatuchak Chatuchak Bangkok 10900,(02) 375 5115,https://maps.app.goo.gl/EGgQboGfwMWUQHUMA,13.82138206,100.5579333
TOYOTA,บริษัท โตโยต้า บัสส์ จำกัด รามอินทรา,89 รามอินทรา คันนายาว คันนายาว กรุงเทพมหานคร 10230,"Toyota Buzz Co., Ltd. Ramintra",89 Ramintra Khan Na Yao Khan Na Yao Bangkok 10230,(02) 375 5115,https://maps.app.goo.gl/E34SRsZJ9GRR388L9,13.82182997,100.6805753
TOYOTA,บริษัท โตโยต้ากาญจนเทพ จำกัด สำนักงานใหญ่,3814 พระรามที่ 4 คลองตัน คลองเตย กรุงเทพมหานคร 10110,"Toyota Kanchana Thep Co., Ltd. Head Office",3814 Rama 4 Khlong Tan Khlong Toei Bangkok 10110,(02) 671 7279,https://maps.app.goo.gl/PNCCqhMsnqVy2wwH9,13.7148639,100.5760312
TOYOTA,บริษัท โตโยต้านนทบุรี ผู้จำหน่ายโตโยต้า จำกัด สำนักงานใหญ่,245 และ 247 รัตนาธิเบศร์ บางกระสอ เมืองนนทบุรี นนทบุรี 11000,"Toyota Nonthaburi Toyota's Dealer Co., Ltd. Head Office",245 And 247 Rattanathibet Bang Kraso Mueang Nonthaburi Nonthaburi 11000,"
1114",https://maps.app.goo.gl/WYNqikjDWEWy3uQk7,13.8617796,100.5031582
TOYOTA,บริษัท โตโยต้านนทบุรี ผู้จำหน่ายโตโยต้า จำกัด อำเภอเมือง,89 ประชาราษฎร์ ตลาดขวัญ เมืองนนทบุรี นนทบุรี 11000,"Toyota Nonthaburi Toyota's Dealer Co., Ltd. Amphoe Muang ",89 Pracharat Talat Khwan Mueang Nonthaburi Nonthaburi 11000,"
1114",https://maps.app.goo.gl/FPcEjJypqJTbYrPP7,13.84377137,100.5036839
TOYOTA,"บริษัท โตโยต้านนทบุรี ผู้จำหน่ายโตโยต้า จำกัด
แจ้งวัฒนะ",34/48 หมู่ที่ 1 แจ้งวัฒนะ บางตลาด ปากเกร็ด นนทบุรี 11120,"Toyota Nonthaburi Toyota's Dealer Co., Ltd.
Chaengwattana",34/48 Moo 1 Chaengwattana Bang Talat Pak Kret Nonthaburi 11120,"
1114",https://maps.app.goo.gl/uRHpiDkqwTAw294d7,13.89616784,100.550425
TOYOTA,บริษัท โตโยต้านนทบุรี ผู้จำหน่ายโตโยต้า จำกัด บางใหญ่,5/9 หมู่ที่ 14 ตลิ่งชัน-สุพรรณบุรี บางม่วง บางใหญ่ นนทบุรี 11140,"Toyota Nonthaburi Toyota's Dealer Co., Ltd. Bangyai",5/9 Moo 14 Talingchan-Suphanburi Bang Muang Bang Yai Nonthaburi 11140,"
1114",https://maps.app.goo.gl/V7tAQnVwqQRPgK849,13.843973,100.4122594
TOYOTA,บริษัท โตโยต้านนทบุรี ผู้จำหน่ายโตโยต้า จำกัด บางบัวทอง,99/9 หมู่ที่ 13 กาญจนาภิเษก บางบัวทอง บางบัวทอง นนทบุรี 11110,"Toyota Nonthaburi Toyota's Dealer Co., Ltd. Bangbuathong ",99/9 Moo 13 Kanchanaphisek Bang Bua Thong Bang Bua Thong Nonthaburi 11110,"
1114",https://maps.app.goo.gl/sZJMRQxC7sjq4Suv9,13.93086734,100.4154434
TOYOTA,บริษัท โตโยต้านนทบุรี ผู้จำหน่ายโตโยต้า จำกัด ราชพฤกษ์,8/9 หมู่ที่ 2 ราชพฤกษ์ บางขนุน บางกรวย นนทบุรี 11130,"Toyota Nonthaburi Toyota's Dealer Co., Ltd. Ratchapruek",8/9 Moo 2 Ratcha Phruk Bang Khanun Bang Kruai Nonthaburi 11130,"
1114",https://maps.app.goo.gl/QZn1MxkMGcn451t78,13.80940092,100.449335
TOYOTA,"บริษัท โตโยต้านนทบุรี ผู้จำหน่ายโตโยต้า จำกัด
ไทรน้อย",44/4 บางกรวย-ไทรน้อย ไทรน้อย ไทรน้อย นนทบุรี 11150,"Toyota Nonthaburi Toyota's Dealer Co., Ltd. Sainoi",44/4 Bangkruay-Sainoi Sai Noi Sai Noi Nonthaburi 11150,"
1114",https://maps.app.goo.gl/cPBEervG8n3uTQgYA,13.98087117,100.3249585
TOYOTA,บริษัท โตโยต้า เอกนิมิตไทย จำกัด สำนักงานใหญ่,45 หมู่ที่ 5 รัตนาธิเบศร์ บางรักใหญ่ บางบัวทอง นนทบุรี 11110,"Toyota Aeknimit Thai Co., Ltd. Head Office",45 Moo 5 Rattanathibet Bang Rak Yai Bang Bua Thong Nonthaburi 11110,(02) 595 4000,https://maps.app.goo.gl/ZdAe7Ev3ooR37HU7A,13.87619726,100.4444477
TOYOTA,บริษัท โตโยต้า เอกนิมิตไทย จำกัด เมืองทอง - ติวานนท์,89 หมู่ที่ 5 ติวานนท์ บ้านใหม่ ปากเกร็ด นนทบุรี 11120,"Toyota Aeknimit Thai Co., Ltd. Muangthong-Tiwanon",89 Moo 5 Tiwanon Ban Mai Pak Kret Nonthaburi 11120,(02) 595 4000,https://maps.app.goo.gl/jooFgUgPmkiLoo5s8,13.93008011,100.5311322
TOYOTA,บริษัท โตโยต้า เอกนิมิตไทย จำกัด กาญจนาภิเษก-บางใหญ่,89 หมู่ที่ 11 กาญจนาภิเษก-บางใหญ่ บางรักพัฒนา บางบัวทอง นนทบุรี 11110,"Toyota Aeknimit Thai Co., Ltd. Kanchanaphisek-BangYai",89 Moo 11 Kanchanaphisek-Bang Yai Bang Rak Phatthana Bang Bua Thong Nonthaburi 11110,(02) 595 4000,https://maps.app.goo.gl/Pe7Y6Ho5iNLyXkQLA,13.88856084,100.407846
TOYOTA,บริษัท โตโยต้าเมืองนนท์ จำกัด สำนักงานใหญ่,148 ติวานนท์ ท่าทราย เมืองนนทบุรี นนทบุรี 11000,"Toyota Muangnont Co., Ltd. Head Office",148 Tiwanon Tha Sai Mueang Nonthaburi Nonthaburi 11000,"
(02) 952 2999",https://maps.app.goo.gl/A9nob96Cb9i4hErL6,13.88004178,100.5145877
TOYOTA,บริษัท โตโยต้าเมืองนนท์ จำกัด พระราม 5,11/11 หมู่ที่ 3 นครอินทร์ บางไผ่ เมืองนนทบุรี นนทบุรี 11000,"Toyota Muangnont Co., Ltd. Rama 5",11/11 Moo 3 Nakorn-In Bang Phai Mueang Nonthaburi Nonthaburi 11000,"
(02) 952 2999",https://maps.app.goo.gl/nrcWnEMSngGPDdKB9,13.82999747,100.4892559
TOYOTA,บริษัท โตโยต้าเมืองนนท์ จำกัด ชัยพฤกษ์,129 หมู่ที่ 6 ชัยพฤกษ์ คลองพระอุดม ปากเกร็ด นนทบุรี 11120,"Toyota Muangnont Co., Ltd. Chaiyapruk",129 Moo 6 Chaiyapruk Khlong Phra Udom Pak Kret Nonthaburi 11120,"
(02) 952 2999",https://maps.app.goo.gl/4tqMFMn86X77XFDU6,13.92434797,100.4722333
TOYOTA,บริษัท โตโยต้าปทุมธานี ผู้จำหน่ายโตโยต้า จำกัด สำนักงานใหญ่,47/39 หมู่ที่ 4 พหลโยธิน คลองหนึ่ง คลองหลวง ปทุมธานี 12120,"Toyota Pathumthani Toyota's Dealer Co., Ltd. Head Office",47/39 Moo 4 Phahon Yothin Khlong Nueng Khlong Luang Pathum Thani 12120,(02) 516 5757,https://maps.app.goo.gl/8oAKi9CvqAcv5trm9,14.03262489,100.6154409
TOYOTA,บริษัท โตโยต้าปทุมธานี ผู้จำหน่ายโตโยต้า จำกัด อำเภอเมือง,22/2 ปทุมสามโคก บางปรอก เมืองปทุมธานี ปทุมธานี 12000,"Toyota Pathumthani Toyota's Dealer Co., Ltd. A.Muang ",22/2 Phathumsamkok Bang Prok Mueang Pathum Thani Pathum Thani 12000,(02) 516 5757,https://maps.app.goo.gl/7Ne44mXy7UiCDkZH8,14.02625042,100.5258207
TOYOTA,บริษัท โตโยต้า พี.เอส. เอนเตอร์ไพรซ์ จำกัด สำนักงานใหญ่,763 รังสิต-นครนายก ประชาธิปัตย์ ธัญบุรี ปทุมธานี 12130,"Toyota PS Enterprise Co., Ltd. Head Office",763 Rangsit-Nakornnayok Pracha Thipat Thanyaburi Pathum Thani 12130,(02) 533 1919,https://maps.app.goo.gl/1eHVrwk9ZFwqsRYR6,13.99348962,100.6536674
TOYOTA,"บริษัท โตโยต้า เภตรา จำกัด
สำนักงานใหญ่",149 หมู่ที่ 2 ปทุมธานี-รังสิต บ้านกลาง เมืองปทุมธานี ปทุมธานี 12000,"Toyota Petra Co., Ltd. Head Office",149 Moo 2 Prathumthani-Rangsit Ban Klang Mueang Pathum Thani Pathum Thani 12000,(02) 979 2830,https://maps.app.goo.gl/Ae9S89Tm7QG5FyTu8,14.00544596,100.5551464
TOYOTA,"บริษัท โตโยต้า เภตรา จำกัด
รังสิต",801/2 พหลโยธิน ประชาธิปัตย์ ธัญบุรี ปทุมธานี 12130,"Toyota Petra Co., Ltd. Rangsit ",801/2 Phahon Yothin Prachathipat Thanyaburi Pathum Thani 12130,(02) 979 2830,https://maps.app.goo.gl/PVrswE2n3dfT8SxS6,13.99251047,100.614055
TOYOTA,บริษัท โตโยต้า เภตรา จำกัด ลาดหลุมแก้ว,119 หมู่ที่ 3 บางบัวทอง-สุพรรณบุรี หน้าไม้ ลาดหลุมแก้ว ปทุมธานี 12140,"Toyota Petra Co., Ltd. Ladlumkaew",119 Moo3 Bangbuathong-Supanburi Na Mai Lat Lum Kaeo Pathum Thani 12140,(02) 979 2830,https://maps.app.goo.gl/pYsnEUipRCGQodeNA,14.01935115,100.3591893
TOYOTA,บริษัท โตโยต้า พาราก้อน มอเตอร์ จำกัด สำนักงานใหญ่,41/1 หมู่ที่ 2 รังสิต-นครนายก ลำผักกูด ธัญบุรี ปทุมธานี 12110,"Toyota Paragon Motor Co., Ltd. Head Office",41/1 Moo 2 Rangsit-Nakornnayok Lam Phak Kut Thanyaburi Pathum Thani 12110,(02) 516 8000,https://maps.app.goo.gl/BCqHWXxLdXGraTnD6,14.03357909,100.7673543
TOYOTA,บริษัท โตโยต้า พาราก้อน มอเตอร์ จำกัด ตลาดไท,88 หมู่ที่ 9 พหลโยธิน คลองหนึ่ง คลองหลวง ปทุมธานี 12120,"Toyota Paragon Motor Co., Ltd. Thai Market",88 Moo 9 Phahon Yothin Khlong Nueng Khlong Luang Pathum Thani 12120,(02) 516 8000,https://maps.app.goo.gl/P2oZkCJhydvUechXA,14.08275052,100.6185819
TOYOTA,บริษัท โตโยต้าเฟรนส์ชิบ จำกัด สำนักงานใหญ่,1/10 หมู่ที่ 7 ลำลูกกา ลาดสวาย ลำลูกกา ปทุมธานี 12150,"Toyota Friendship Co., Ltd. Head Office",1/10 Moo 7 Lumlukka Lat Sawai Lam Luk Ka Pathum Thani 12150,"
(02) 994 4217",https://maps.app.goo.gl/6JqTqxC2mbQY1jEg7,13.93203849,100.6818742
TOYOTA,บริษัท โตโยต้าเฟรนส์ชิบ จำกัด บางคูวัด,99/9 หมู่ที่ 7 ปทุมธานี-นนทบุรี บางคูวัด เมืองปทุมธานี ปทุมธานี 12000,"Toyota Friendship Co., Ltd. Bang Khu Wat",99/9 Moo 7 Pathumthani-Nonthaburi Bang Khu Wat Mueang Pathum Thani Pathum Thani 12000,"
(02) 994 4217",https://maps.app.goo.gl/ZvcUrHgai6DqQDs69,13.9624429,100.5137141
TOYOTA,บริษัท โตโยต้าเฟรนส์ชิบ จำกัด นวนคร,58/846 หมู่ที่ 13 พหลโยธิน คลองหนึ่ง คลองหลวง ปทุมธานี 12120,"Toyota Friendship Co., Ltd. Nawanakorn",58/846 Moo 13 Phahon Yothin Khlong Nueng Khlong Luang Pathum Thani 12120,"
(02) 994 4217",https://maps.app.goo.gl/rAULgmoSaVmrAH3Z7,14.11293139,100.6179605
TOYOTA,บริษัท โตโยต้าเฟรนส์ชิบ จำกัด คลองหลวง,1/88 หมู่ที่ 7 - คลองสาม คลองหลวง ปทุมธานี 12150,"Toyota Friendship Co., Ltd. Khlongluang",1/88 Moo 7 - Khlong Sam Khlong Luang Pathum Thani 12150,"
(02) 994 4217",https://maps.app.goo.gl/LAMFDzJxR9vqFsDE8,14.06577947,100.6626377
